name,lat,lon
Yangjiang_windfarm, 20.961667, 111.608889
HKUST, 22.3379, 114.2680
HKUST_Sea, 22.34,114.30
Tung_Lung_Chau, 22.2375,114.30
Po_Toi, 22.1535,114.2784
Lamma_Island, 22.1954,114.1526
Chek_Lap_Kok, 22.3387, 113.904
Tengzhou, 35.098, 117.19